{
  "requests": [],
  "mapPoints": [
    {
      "id": 4,
      "name": "Аквамолл",
      "address": "г. Москва, ул. Южнобутовская, 2",
      "lat": 55.545284,
      "lng": 37.544297
    },
    {
      "id": 5,
      "name": "Алтуфьево Марс",
      "address": "г. Москва, ул. Инженерная, 1",
      "lat": 55.878834,
      "lng": 37.582331
    },
    {
      "id": 6,
      "name": "Архангельск Европарк",
      "address": "г. Архангельск, Троицкий проспект, 17",
      "lat": 64.532355,
      "lng": 40.528303
    },
    {
      "id": 7,
      "name": "Аэропорт",
      "address": "г. Москва, ул. Усиевича, 12-14",
      "lat": 55.80614,
      "lng": 37.528217
    },
    {
      "id": 8,
      "name": "Бабушкинская Орион",
      "address": "г. Москва, ул. Летчика Бабушкина, 26",
      "lat": 55.869127,
      "lng": 37.677238
    },
    {
      "id": 9,
      "name": "Балашиха Футура",
      "address": "г. Балашиха, шоссе Энтузиастов, 28",
      "lat": 55.793551,
      "lng": 37.935199
    },
    {
      "id": 10,
      "name": "Барнаул Балтийская",
      "address": "г. Барнаул, ул. Балтийская, 116",
      "lat": 53.338398,
      "lng": 83.65235
    },
    {
      "id": 11,
      "name": "Авиапарк",
      "address": "Парковая зона",
      "lat": 55.754931153918754,
      "lng": 37.61527151125175,
      "createdAt": "2025-07-16T12:54:05.493Z"
    }
  ],
  "completedCount": 0,
  "nextRequestId": 2535,
  "nextClubId": 13,
  "lastUpdated": "2025-07-16T12:56:12.222Z"
}